{"type":"FeatureCollection","features":[{"type":"Feature","id":1,"geometry":{"type":"Point","coordinates":[151.198536910055,-33.8844963691057]},"properties":{"OBJECTID":1,"site_name":"5010 Abercrombie Street","Suburb":"Chippendale","Location":"Unknown","Accessible":"Wheelchair accessibility unknown"}},{"type":"Feature","id":2,"geometry":{"type":"Point","coordinates":[151.187710639662,-33.8921752760082]},"properties":{"OBJECTID":2,"site_name":"4010 King Street","Suburb":"Newtown","Location":"Park","Accessible":"Wheelchair accessibility unknown"}},{"type":"Feature","id":3,"geometry":{"type":"Point","coordinates":[151.20451849887,-33.9061363383277]},"properties":{"OBJECTID":3,"site_name":"5020 Ebsworth Street","Suburb":"Zetland","Location":"Footway","Accessible":"Wheelchair accessible"}},{"type":"Feature","id":4,"geometry":{"type":"Point","coordinates":[151.223345469068,-33.8688242970446]},"properties":{"OBJECTID":4,"site_name":"5010 Victoria Street","Suburb":"Potts Point","Location":"Footway","Accessible":"Wheelchair accessible"}},{"type":"Feature","id":5,"geometry":{"type":"Point","coordinates":[151.204006470247,-33.86312029281]},"properties":{"OBJECTID":5,"site_name":"4040 Kent Street","Suburb":"Millers Point","Location":"Footway","Accessible":"Wheelchair accessible"}},{"type":"Feature","id":6,"geometry":{"type":"Point","coordinates":[151.187652391129,-33.8734338865175]},"properties":{"OBJECTID":6,"site_name":"Glebe Foreshore Walk East","Suburb":"Glebe","Location":"Park","Accessible":"Wheelchair accessibility unknown"}},{"type":"Feature","id":7,"geometry":{"type":"Point","coordinates":[151.205536657236,-33.8571887352457]},"properties":{"OBJECTID":7,"site_name":"Pottinger Park (West) The Paddock","Suburb":"Dawes Point","Location":"Park","Accessible":"Wheelchair accessible"}},{"type":"Feature","id":8,"geometry":{"type":"Point","coordinates":[151.182020480902,-33.9075263063776]},"properties":{"OBJECTID":8,"site_name":"Sydney Park","Suburb":"Alexandria","Location":"Park","Accessible":"Wheelchair accessible"}},{"type":"Feature","id":9,"geometry":{"type":"Point","coordinates":[151.182767285984,-33.9087929926441]},"properties":{"OBJECTID":9,"site_name":"Sydney Park","Suburb":"Alexandria","Location":"Park","Accessible":"No wheelchair access"}},{"type":"Feature","id":10,"geometry":{"type":"Point","coordinates":[151.182472451693,-33.9119976366893]},"properties":{"OBJECTID":10,"site_name":"Sydney Park","Suburb":"Alexandria","Location":"Park","Accessible":"No wheelchair access"}},{"type":"Feature","id":11,"geometry":{"type":"Point","coordinates":[151.181641048292,-33.9088014348914]},"properties":{"OBJECTID":11,"site_name":"Sydney Park","Suburb":"Alexandria","Location":"Park","Accessible":"No wheelchair access"}},{"type":"Feature","id":12,"geometry":{"type":"Point","coordinates":[151.204548684364,-33.9202524684727]},"properties":{"OBJECTID":12,"site_name":"Tarakan Reserve","Suburb":"Rosebery","Location":"Park","Accessible":"Wheelchair accessible"}},{"type":"Feature","id":13,"geometry":{"type":"Point","coordinates":[151.21131264265,-33.922365491821]},"properties":{"OBJECTID":13,"site_name":"Southern Cross Dr Reserve","Suburb":"Rosebery","Location":"Reserve","Accessible":"Wheelchair accessible"}},{"type":"Feature","id":14,"geometry":{"type":"Point","coordinates":[151.203348685063,-33.8901156797745]},"properties":{"OBJECTID":14,"site_name":"Reconciliation Park","Suburb":"Redfern","Location":"Park","Accessible":"Wheelchair accessible"}},{"type":"Feature","id":15,"geometry":{"type":"Point","coordinates":[151.194219456988,-33.891776272851]},"properties":{"OBJECTID":15,"site_name":"Charles Kernan Reserve","Suburb":"Darlington","Location":"Park","Accessible":"Wheelchair accessible"}},{"type":"Feature","id":16,"geometry":{"type":"Point","coordinates":[151.191207460012,-33.8877852643577]},"properties":{"OBJECTID":16,"site_name":"Victoria Park","Suburb":"Camperdown","Location":"Park","Accessible":"Wheelchair accessible"}},{"type":"Feature","id":17,"geometry":{"type":"Point","coordinates":[151.192217412593,-33.8877252469949]},"properties":{"OBJECTID":17,"site_name":"Victoria Park","Suburb":"Camperdown","Location":"Park","Accessible":"Wheelchair accessible"}},{"type":"Feature","id":18,"geometry":{"type":"Point","coordinates":[151.188068493603,-33.8807411989759]},"properties":{"OBJECTID":18,"site_name":"5070 St Johns Road","Suburb":"Glebe","Location":"Footway","Accessible":"Wheelchair accessible"}},{"type":"Feature","id":19,"geometry":{"type":"Point","coordinates":[151.182792996597,-33.9038318561381]},"properties":{"OBJECTID":19,"site_name":"Amy Street Reserve","Suburb":"Erskineville","Location":"Park","Accessible":"Wheelchair accessible"}},{"type":"Feature","id":20,"geometry":{"type":"Point","coordinates":[151.182157482036,-33.8896772417896]},"properties":{"OBJECTID":20,"site_name":"5060 Missenden Road","Suburb":"Camperdown","Location":"Footway","Accessible":"Wheelchair accessible"}},{"type":"Feature","id":21,"geometry":{"type":"Point","coordinates":[151.192353147282,-33.8820296992178]},"properties":{"OBJECTID":21,"site_name":"4040 Glebe Street","Suburb":"Glebe","Location":"Park","Accessible":"Wheelchair accessible"}},{"type":"Feature","id":22,"geometry":{"type":"Point","coordinates":[151.184629614563,-33.9013064964257]},"properties":{"OBJECTID":22,"site_name":"Kirsova 2 Playground","Suburb":"Erskineville","Location":"Park","Accessible":"Wheelchair accessible"}},{"type":"Feature","id":23,"geometry":{"type":"Point","coordinates":[151.178674184533,-33.8829494278805]},"properties":{"OBJECTID":23,"site_name":"Orphan School Creek and Wood Street Land","Suburb":"Forest Lodge","Location":"Park","Accessible":"Wheelchair accessibility unknown"}},{"type":"Feature","id":24,"geometry":{"type":"Point","coordinates":[151.190905672278,-33.8809701889447]},"properties":{"OBJECTID":24,"site_name":"Glebe Street Playground","Suburb":"Glebe","Location":"Park","Accessible":"No wheelchair access"}},{"type":"Feature","id":25,"geometry":{"type":"Point","coordinates":[151.213462058021,-33.9013632077602]},"properties":{"OBJECTID":25,"site_name":"7-19 Amelia Street (Dyuralya Square)","Suburb":"Waterloo","Location":"Park","Accessible":"Wheelchair accessible"}},{"type":"Feature","id":26,"geometry":{"type":"Point","coordinates":[151.213117940007,-33.9017524557116]},"properties":{"OBJECTID":26,"site_name":"7-19 Amelia Street (Dyuralya Square)","Suburb":"Waterloo","Location":"Park","Accessible":"Wheelchair accessible"}},{"type":"Feature","id":27,"geometry":{"type":"Point","coordinates":[151.196969082585,-33.8767569775011]},"properties":{"OBJECTID":27,"site_name":"Quarry St Streetscape","Suburb":"Ultimo","Location":"Park","Accessible":"Wheelchair accessible"}},{"type":"Feature","id":28,"geometry":{"type":"Point","coordinates":[151.196212724993,-33.8770199439767]},"properties":{"OBJECTID":28,"site_name":"Quarry St Streetscape","Suburb":"Ultimo","Location":"Park","Accessible":"Wheelchair accessible"}},{"type":"Feature","id":29,"geometry":{"type":"Point","coordinates":[151.182033479367,-33.8896152658678]},"properties":{"OBJECTID":29,"site_name":"4060 Missenden Road","Suburb":"Camperdown","Location":"Footway","Accessible":"Wheelchair accessible"}},{"type":"Feature","id":30,"geometry":{"type":"Point","coordinates":[151.204991992821,-33.9129070793376]},"properties":{"OBJECTID":30,"site_name":"Sweet Acres","Suburb":"Rosebery","Location":"Park","Accessible":"No wheelchair access"}},{"type":"Feature","id":31,"geometry":{"type":"Point","coordinates":[151.225226467068,-33.8673492776967]},"properties":{"OBJECTID":31,"site_name":"St Neot Reserve","Suburb":"Potts Point","Location":"Park","Accessible":"No wheelchair access"}},{"type":"Feature","id":32,"geometry":{"type":"Point","coordinates":[151.185827651705,-33.900186071949]},"properties":{"OBJECTID":32,"site_name":"Rest Area - Bridge Street","Suburb":"Erskineville","Location":"Park","Accessible":"Wheelchair accessible"}},{"type":"Feature","id":33,"geometry":{"type":"Point","coordinates":[151.201671135887,-33.8861423928562]},"properties":{"OBJECTID":33,"site_name":"5040 O'Connor Street ","Suburb":"Chippendale","Location":"Park","Accessible":"Wheelchair accessible"}},{"type":"Feature","id":34,"geometry":{"type":"Point","coordinates":[151.205214769461,-33.8954296017958]},"properties":{"OBJECTID":34,"site_name":"Redfern Park","Suburb":"Redfern","Location":"Park","Accessible":"Wheelchair accessible"}},{"type":"Feature","id":35,"geometry":{"type":"Point","coordinates":[151.213623959919,-33.8946127860096]},"properties":{"OBJECTID":35,"site_name":"Street Closure - Telopea Street","Suburb":"Redfern","Location":"Reserve","Accessible":"Wheelchair accessible"}},{"type":"Feature","id":36,"geometry":{"type":"Point","coordinates":[151.210704234453,-33.9128557708988]},"properties":{"OBJECTID":36,"site_name":"Garraway Park","Suburb":"Rosebery","Location":"Park","Accessible":"Wheelchair accessibility unknown"}},{"type":"Feature","id":37,"geometry":{"type":"Point","coordinates":[151.198102972039,-33.890786140561]},"properties":{"OBJECTID":37,"site_name":"Redfern Community Centre","Suburb":"Redfern","Location":"Park","Accessible":"Wheelchair accessibility unknown"}},{"type":"Feature","id":38,"geometry":{"type":"Point","coordinates":[151.185882403659,-33.9082078924065]},"properties":{"OBJECTID":38,"site_name":"Sydney Park","Suburb":"Alexandria","Location":"Park","Accessible":"No wheelchair access"}},{"type":"Feature","id":39,"geometry":{"type":"Point","coordinates":[151.208975248815,-33.8866730814797]},"properties":{"OBJECTID":39,"site_name":"5020 Holt Street","Suburb":"Surry Hills","Location":"Footway","Accessible":"Wheelchair accessible"}},{"type":"Feature","id":40,"geometry":{"type":"Point","coordinates":[151.210049971524,-33.8871914240348]},"properties":{"OBJECTID":40,"site_name":"4070 Waterloo Street","Suburb":"Surry Hills","Location":"Footway","Accessible":"Wheelchair accessible"}},{"type":"Feature","id":41,"geometry":{"type":"Point","coordinates":[151.181507923712,-33.8814727704139]},"properties":{"OBJECTID":41,"site_name":"Ross St Playground","Suburb":"Forest Lodge","Location":"Park","Accessible":"Wheelchair accessibility unknown"}},{"type":"Feature","id":42,"geometry":{"type":"Point","coordinates":[151.189750032808,-33.8773310205153]},"properties":{"OBJECTID":42,"site_name":"Cardigan St Park","Suburb":"Glebe","Location":"Park","Accessible":"Wheelchair accessibility unknown"}},{"type":"Feature","id":43,"geometry":{"type":"Point","coordinates":[151.176017486909,-33.8736807650836]},"properties":{"OBJECTID":43,"site_name":"Bicentennial Park 2","Suburb":"Annandale","Location":"Park","Accessible":"Wheelchair accessibility unknown"}},{"type":"Feature","id":44,"geometry":{"type":"Point","coordinates":[151.214066422788,-33.8857447173404]},"properties":{"OBJECTID":44,"site_name":"Shannon Reserve","Suburb":"Surry Hills","Location":"Park","Accessible":"Wheelchair accessibility unknown"}},{"type":"Feature","id":45,"geometry":{"type":"Point","coordinates":[151.194499939188,-33.8996040329706]},"properties":{"OBJECTID":45,"site_name":"Mitchell Road Reserve","Suburb":"Alexandria","Location":"Park","Accessible":"Wheelchair accessibility unknown"}},{"type":"Feature","id":46,"geometry":{"type":"Point","coordinates":[151.187198183729,-33.8773723980082]},"properties":{"OBJECTID":46,"site_name":"Sarah Peninton Reserve","Suburb":"Glebe","Location":"Park","Accessible":"Wheelchair accessibility unknown"}},{"type":"Feature","id":47,"geometry":{"type":"Point","coordinates":[151.208141052407,-33.9086552661332]},"properties":{"OBJECTID":47,"site_name":"Gunyama Park - 17 Zetland Avenue","Suburb":"Zetland","Location":"Park","Accessible":"Wheelchair accessibility unknown"}},{"type":"Feature","id":48,"geometry":{"type":"Point","coordinates":[151.207919539903,-33.9096068022269]},"properties":{"OBJECTID":48,"site_name":"Gunyama Park - 17 Zetland Avenue","Suburb":"Zetland","Location":"Park","Accessible":"Wheelchair accessibility unknown"}},{"type":"Feature","id":49,"geometry":{"type":"Point","coordinates":[151.208790677622,-33.9098818829195]},"properties":{"OBJECTID":49,"site_name":"Gunyama Park - 17 Zetland Avenue","Suburb":"Zetland","Location":"Park","Accessible":"Wheelchair accessibility unknown"}},{"type":"Feature","id":50,"geometry":{"type":"Point","coordinates":[151.208960526921,-33.9097709149315]},"properties":{"OBJECTID":50,"site_name":"Gunyama Park - 17 Zetland Avenue","Suburb":"Zetland","Location":"Park","Accessible":"Wheelchair accessibility unknown"}},{"type":"Feature","id":51,"geometry":{"type":"Point","coordinates":[151.208603165728,-33.908826466681]},"properties":{"OBJECTID":51,"site_name":"Gunyama Park - 17 Zetland Avenue","Suburb":"Zetland","Location":"Park","Accessible":"Wheelchair accessibility unknown"}},{"type":"Feature","id":52,"geometry":{"type":"Point","coordinates":[151.212538667997,-33.8806237486804]},"properties":{"OBJECTID":52,"site_name":"James Hilder Reserve","Suburb":"Surry Hills","Location":"Park","Accessible":"Wheelchair accessibility unknown"}},{"type":"Feature","id":53,"geometry":{"type":"Point","coordinates":[151.212059814937,-33.8680300923578]},"properties":{"OBJECTID":53,"site_name":"5050 Macquarie Street","Suburb":"Sydney","Location":"Footway","Accessible":"Wheelchair accessibility unknown"}},{"type":"Feature","id":54,"geometry":{"type":"Point","coordinates":[151.206642531751,-33.874685932833]},"properties":{"OBJECTID":54,"site_name":"5140 George Street","Suburb":"Sydney","Location":"Footway","Accessible":"Wheelchair accessible"}},{"type":"Feature","id":55,"geometry":{"type":"Point","coordinates":[151.206813220235,-33.8747795834795]},"properties":{"OBJECTID":55,"site_name":"5140 George Street","Suburb":"Sydney","Location":"Footway","Accessible":"Wheelchair accessible"}},{"type":"Feature","id":56,"geometry":{"type":"Point","coordinates":[151.20591612347,-33.8767948098316]},"properties":{"OBJECTID":56,"site_name":"5150 George Street","Suburb":"Sydney","Location":"Footway","Accessible":"Wheelchair accessible"}},{"type":"Feature","id":57,"geometry":{"type":"Point","coordinates":[151.2061011501,-33.8769112138394]},"properties":{"OBJECTID":57,"site_name":"5150 George Street","Suburb":"Sydney","Location":"Footway","Accessible":"Wheelchair accessible"}},{"type":"Feature","id":58,"geometry":{"type":"Point","coordinates":[151.205425384529,-33.8788303764273]},"properties":{"OBJECTID":58,"site_name":"5160 George Street","Suburb":"Haymarket","Location":"Footway","Accessible":"Wheelchair accessible"}},{"type":"Feature","id":59,"geometry":{"type":"Point","coordinates":[151.204960166729,-33.8802966823297]},"properties":{"OBJECTID":59,"site_name":"4200 George Street","Suburb":"Haymarket","Location":"Footway","Accessible":"Wheelchair accessibility unknown"}},{"type":"Feature","id":60,"geometry":{"type":"Point","coordinates":[151.205086666372,-33.8805390198182]},"properties":{"OBJECTID":60,"site_name":"4200 George Street","Suburb":"Haymarket","Location":"Footway","Accessible":"Wheelchair accessible"}},{"type":"Feature","id":61,"geometry":{"type":"Point","coordinates":[151.205606075935,-33.8789422995268]},"properties":{"OBJECTID":61,"site_name":"4180 George Street","Suburb":"Haymarket","Location":"Footway","Accessible":"Wheelchair accessibility unknown"}},{"type":"Feature","id":62,"geometry":{"type":"Point","coordinates":[151.194481569817,-33.8995828433844]},"properties":{"OBJECTID":62,"site_name":"5020 Mitchell Road","Suburb":"Alexandria","Location":"Reserve","Accessible":"Wheelchair accessible"}},{"type":"Feature","id":63,"geometry":{"type":"Point","coordinates":[151.193861640738,-33.907614799827]},"properties":{"OBJECTID":63,"site_name":"5040 Maddox Street","Suburb":"Alexandria","Location":"Park","Accessible":"Wheelchair accessibility unknown"}},{"type":"Feature","id":64,"geometry":{"type":"Point","coordinates":[151.212146499479,-33.863395935121]},"properties":{"OBJECTID":64,"site_name":"5060 Bridge Street","Suburb":"Sydney","Location":"Footway","Accessible":"Wheelchair accessible"}},{"type":"Feature","id":65,"geometry":{"type":"Point","coordinates":[151.207206858728,-33.8657065690167]},"properties":{"OBJECTID":65,"site_name":"4090 George Street","Suburb":"Sydney","Location":"Footway","Accessible":"Wheelchair accessible"}},{"type":"Feature","id":66,"geometry":{"type":"Point","coordinates":[151.20756721019,-33.8623989868953]},"properties":{"OBJECTID":66,"site_name":"4060 George Street","Suburb":"Sydney","Location":"Footway","Accessible":"Wheelchair accessible"}},{"type":"Feature","id":67,"geometry":{"type":"Point","coordinates":[151.210327340325,-33.8616738866273]},"properties":{"OBJECTID":67,"site_name":"5020 Alfred Street","Suburb":"Sydney","Location":"Footway","Accessible":"Wheelchair accessible"}},{"type":"Feature","id":68,"geometry":{"type":"Point","coordinates":[151.207119806581,-33.8678122247177]},"properties":{"OBJECTID":68,"site_name":"4110 George Street","Suburb":"Sydney","Location":"Footway","Accessible":"Wheelchair accessible"}},{"type":"Feature","id":69,"geometry":{"type":"Point","coordinates":[151.20701376882,-33.8695900002824]},"properties":{"OBJECTID":69,"site_name":"5110 George Street","Suburb":"Sydney","Location":"Footway","Accessible":"Wheelchair accessible"}},{"type":"Feature","id":70,"geometry":{"type":"Point","coordinates":[151.193912529932,-33.9076991370657]},"properties":{"OBJECTID":70,"site_name":"Sheas Creek Shared Path","Suburb":"Alexandria","Location":"Park","Accessible":"Wheelchair accessibility unknown"}},{"type":"Feature","id":71,"geometry":{"type":"Point","coordinates":[151.205503828688,-33.9080091815298]},"properties":{"OBJECTID":71,"site_name":"103 Portman Street","Suburb":"Zetland","Location":"Park","Accessible":"Wheelchair accessibility unknown"}},{"type":"Feature","id":72,"geometry":{"type":"Point","coordinates":[151.205399150844,-33.8686614139587]},"properties":{"OBJECTID":72,"site_name":"5040 King Street","Suburb":"Sydney","Location":"Footway","Accessible":"Wheelchair accessible"}},{"type":"Feature","id":73,"geometry":{"type":"Point","coordinates":[151.203473867941,-33.8792056415788]},"properties":{"OBJECTID":73,"site_name":"4020 Harbour Street","Suburb":"Haymarket","Location":"Footway","Accessible":"Wheelchair accessible"}},{"type":"Feature","id":74,"geometry":{"type":"Point","coordinates":[151.178818245274,-33.8856075288659]},"properties":{"OBJECTID":74,"site_name":"The Western Block","Suburb":"Camperdown","Location":"Park","Accessible":"Wheelchair accessibility unknown"}},{"type":"Feature","id":75,"geometry":{"type":"Point","coordinates":[151.21297307364,-33.8620895751416]},"properties":{"OBJECTID":75,"site_name":"5020 Macquarie Street","Suburb":"Sydney","Location":"Footway","Accessible":"No wheelchair access"}},{"type":"Feature","id":76,"geometry":{"type":"Point","coordinates":[151.212364183003,-33.8612240857001]},"properties":{"OBJECTID":76,"site_name":"Circular Quay","Suburb":"Sydney","Location":"Property","Accessible":"Wheelchair accessible"}},{"type":"Feature","id":77,"geometry":{"type":"Point","coordinates":[151.198679584289,-33.8795918213922]},"properties":{"OBJECTID":77,"site_name":"5050 MacArthur Street","Suburb":"Ultimo","Location":"Footway","Accessible":"No wheelchair access"}},{"type":"Feature","id":78,"geometry":{"type":"Point","coordinates":[151.205416239845,-33.8598289103625]},"properties":{"OBJECTID":78,"site_name":"Observatory Hill Park","Suburb":"Millers Point","Location":"Park","Accessible":"No wheelchair access"}},{"type":"Feature","id":79,"geometry":{"type":"Point","coordinates":[151.198254981393,-33.8773310822928]},"properties":{"OBJECTID":79,"site_name":"5090 Harris Street","Suburb":"Ultimo","Location":"Footway","Accessible":"No wheelchair access"}},{"type":"Feature","id":80,"geometry":{"type":"Point","coordinates":[151.192232717097,-33.8640212802656]},"properties":{"OBJECTID":80,"site_name":"Giba Park","Suburb":"Pyrmont","Location":"Park","Accessible":"No wheelchair access"}},{"type":"Feature","id":81,"geometry":{"type":"Point","coordinates":[151.228973832363,-33.8704308134831]},"properties":{"OBJECTID":81,"site_name":"Beare Park","Suburb":"Elizabeth Bay","Location":"Park","Accessible":"No wheelchair access"}},{"type":"Feature","id":82,"geometry":{"type":"Point","coordinates":[151.225441052385,-33.8727018860066]},"properties":{"OBJECTID":82,"site_name":"Fitzroy Gardens","Suburb":"Elizabeth Bay","Location":"Park","Accessible":"No wheelchair access"}},{"type":"Feature","id":83,"geometry":{"type":"Point","coordinates":[151.229584473974,-33.8735991287852]},"properties":{"OBJECTID":83,"site_name":"Rushcutters Bay Park","Suburb":"Rushcutters Bay","Location":"Park","Accessible":"No wheelchair access"}},{"type":"Feature","id":84,"geometry":{"type":"Point","coordinates":[151.220823870814,-33.8793631191241]},"properties":{"OBJECTID":84,"site_name":"Green Park","Suburb":"Darlinghurst","Location":"Park","Accessible":"No wheelchair access"}},{"type":"Feature","id":85,"geometry":{"type":"Point","coordinates":[151.196698057996,-33.8997999943032]},"properties":{"OBJECTID":85,"site_name":"Alexandria Park","Suburb":"Alexandria","Location":"Park","Accessible":"No wheelchair access"}},{"type":"Feature","id":86,"geometry":{"type":"Point","coordinates":[151.199698715319,-33.9108053134798]},"properties":{"OBJECTID":86,"site_name":"Beaconsfield Park","Suburb":"Beaconsfield","Location":"Park","Accessible":"No wheelchair access"}},{"type":"Feature","id":87,"geometry":{"type":"Point","coordinates":[151.200277438814,-33.914107723398]},"properties":{"OBJECTID":87,"site_name":"Janet Beirne Reserve","Suburb":"Beaconsfield","Location":"Park","Accessible":"No wheelchair access"}},{"type":"Feature","id":88,"geometry":{"type":"Point","coordinates":[151.2058924247,-33.9199375131551]},"properties":{"OBJECTID":88,"site_name":"Crete Reserve","Suburb":"Rosebery","Location":"Park","Accessible":"No wheelchair access"}},{"type":"Feature","id":89,"geometry":{"type":"Point","coordinates":[151.212578154175,-33.8648720407654]},"properties":{"OBJECTID":89,"site_name":"5030 Macquarie Street","Suburb":"Sydney","Location":"Footway","Accessible":"No wheelchair access"}},{"type":"Feature","id":90,"geometry":{"type":"Point","coordinates":[151.211462393585,-33.871292495574]},"properties":{"OBJECTID":90,"site_name":"Hyde Park North","Suburb":"Sydney","Location":"Park","Accessible":"No wheelchair access"}},{"type":"Feature","id":91,"geometry":{"type":"Point","coordinates":[151.213577913934,-33.8704447095561]},"properties":{"OBJECTID":91,"site_name":"4010 College Street","Suburb":"Sydney","Location":"Footway","Accessible":"No wheelchair access"}},{"type":"Feature","id":92,"geometry":{"type":"Point","coordinates":[151.212178448395,-33.8749114836925]},"properties":{"OBJECTID":92,"site_name":"Hyde Park South","Suburb":"Sydney","Location":"Park","Accessible":"No wheelchair access"}},{"type":"Feature","id":93,"geometry":{"type":"Point","coordinates":[151.209711523724,-33.8595623438618]},"properties":{"OBJECTID":93,"site_name":"Circular Quay","Suburb":"Sydney","Location":"Property","Accessible":"No wheelchair access"}},{"type":"Feature","id":94,"geometry":{"type":"Point","coordinates":[151.222430768731,-33.9016289711106]},"properties":{"OBJECTID":94,"site_name":"Moore Park","Suburb":"Moore Park","Location":"Park","Accessible":"No wheelchair access"}},{"type":"Feature","id":95,"geometry":{"type":"Point","coordinates":[151.190193337648,-33.9009538398311]},"properties":{"OBJECTID":95,"site_name":"Harry Noble Reserve","Suburb":"Erskineville","Location":"Park","Accessible":"No wheelchair access"}},{"type":"Feature","id":96,"geometry":{"type":"Point","coordinates":[151.189581904751,-33.8996550107942]},"properties":{"OBJECTID":96,"site_name":"Solander Park","Suburb":"Erskineville","Location":"Park","Accessible":"No wheelchair access"}},{"type":"Feature","id":97,"geometry":{"type":"Point","coordinates":[151.206207507414,-33.8728933391339]},"properties":{"OBJECTID":97,"site_name":"5040 Druitt Street","Suburb":"Sydney","Location":"Property","Accessible":"No wheelchair access"}},{"type":"Feature","id":98,"geometry":{"type":"Point","coordinates":[151.204744487927,-33.9010217311181]},"properties":{"OBJECTID":98,"site_name":"Waterloo Park and Oval","Suburb":"Waterloo","Location":"Park","Accessible":"No wheelchair access"}},{"type":"Feature","id":99,"geometry":{"type":"Point","coordinates":[151.204785142515,-33.9006970668654]},"properties":{"OBJECTID":99,"site_name":"Waterloo Park and Oval","Suburb":"Waterloo","Location":"Park","Accessible":"No wheelchair access"}},{"type":"Feature","id":100,"geometry":{"type":"Point","coordinates":[151.188148135598,-33.9093881663106]},"properties":{"OBJECTID":100,"site_name":"Sydney Park","Suburb":"Alexandria","Location":"Park","Accessible":"No wheelchair access"}},{"type":"Feature","id":101,"geometry":{"type":"Point","coordinates":[151.185118256364,-33.9078950025584]},"properties":{"OBJECTID":101,"site_name":"Sydney Park","Suburb":"Alexandria","Location":"Park","Accessible":"No wheelchair access"}},{"type":"Feature","id":102,"geometry":{"type":"Point","coordinates":[151.184887100845,-33.9075602986357]},"properties":{"OBJECTID":102,"site_name":"Sydney Park","Suburb":"Alexandria","Location":"Park","Accessible":"No wheelchair access"}},{"type":"Feature","id":103,"geometry":{"type":"Point","coordinates":[151.191997154809,-33.901914984003]},"properties":{"OBJECTID":103,"site_name":"Erskineville Park and Oval","Suburb":"Erskineville","Location":"Park","Accessible":"No wheelchair access"}},{"type":"Feature","id":104,"geometry":{"type":"Point","coordinates":[151.18016379784,-33.900046599304]},"properties":{"OBJECTID":104,"site_name":"Lillian Fowler Reserve","Suburb":"Newtown","Location":"Park","Accessible":"No wheelchair access"}},{"type":"Feature","id":105,"geometry":{"type":"Point","coordinates":[151.181461806146,-33.9010896917935]},"properties":{"OBJECTID":105,"site_name":"Mrs Isabella Hills Rest Area","Suburb":"Newtown","Location":"Park","Accessible":"No wheelchair access"}},{"type":"Feature","id":106,"geometry":{"type":"Point","coordinates":[151.20802797936,-33.9059454317309]},"properties":{"OBJECTID":106,"site_name":"Mary O'Brien Reserve","Suburb":"Zetland","Location":"Park","Accessible":"No wheelchair access"}},{"type":"Feature","id":107,"geometry":{"type":"Point","coordinates":[151.211955818801,-33.8967093821458]},"properties":{"OBJECTID":107,"site_name":"Baptist St Reserve","Suburb":"Redfern","Location":"Reserve","Accessible":"No wheelchair access"}},{"type":"Feature","id":108,"geometry":{"type":"Point","coordinates":[151.201761653377,-33.8580658373037]},"properties":{"OBJECTID":108,"site_name":"Munn Reserve","Suburb":"Barangaroo","Location":"Park","Accessible":"No wheelchair access"}},{"type":"Feature","id":109,"geometry":{"type":"Point","coordinates":[151.207474564585,-33.8745910951054]},"properties":{"OBJECTID":109,"site_name":"5040 Bathurst Street","Suburb":"Sydney","Location":"Property","Accessible":"No wheelchair access"}},{"type":"Feature","id":110,"geometry":{"type":"Point","coordinates":[151.201354239216,-33.8744850300277]},"properties":{"OBJECTID":110,"site_name":"Tumbalong Park","Suburb":"Sydney","Location":"Park","Accessible":"No wheelchair access"}},{"type":"Feature","id":111,"geometry":{"type":"Point","coordinates":[151.21063170826,-33.8691285139841]},"properties":{"OBJECTID":111,"site_name":"5090 King Street","Suburb":"Sydney","Location":"Footway","Accessible":"No wheelchair access"}},{"type":"Feature","id":112,"geometry":{"type":"Point","coordinates":[151.209248349976,-33.8769060534347]},"properties":{"OBJECTID":112,"site_name":"5060 Liverpool Street","Suburb":"Sydney","Location":"Footway","Accessible":"No wheelchair access"}},{"type":"Feature","id":113,"geometry":{"type":"Point","coordinates":[151.213059171683,-33.8627404405947]},"properties":{"OBJECTID":113,"site_name":"5020 Macquarie Street","Suburb":"Sydney","Location":"Footway","Accessible":"No wheelchair access"}},{"type":"Feature","id":114,"geometry":{"type":"Point","coordinates":[151.212842250191,-33.8630091705478]},"properties":{"OBJECTID":114,"site_name":"5020 Macquarie Street","Suburb":"Sydney","Location":"Footway","Accessible":"No wheelchair access"}},{"type":"Feature","id":115,"geometry":{"type":"Point","coordinates":[151.212504855467,-33.8653651332368]},"properties":{"OBJECTID":115,"site_name":"5030 Macquarie Street","Suburb":"Sydney","Location":"Footway","Accessible":"No wheelchair access"}},{"type":"Feature","id":116,"geometry":{"type":"Point","coordinates":[151.212355069609,-33.8663278262934]},"properties":{"OBJECTID":116,"site_name":"5040 Macquarie Street","Suburb":"Sydney","Location":"Footway","Accessible":"No wheelchair access"}},{"type":"Feature","id":117,"geometry":{"type":"Point","coordinates":[151.212613108738,-33.8663946918943]},"properties":{"OBJECTID":117,"site_name":"5040 Macquarie Street","Suburb":"Sydney","Location":"Property","Accessible":"No wheelchair access"}},{"type":"Feature","id":118,"geometry":{"type":"Point","coordinates":[151.212251137659,-33.8671649401677]},"properties":{"OBJECTID":118,"site_name":"5050 Macquarie Street","Suburb":"Sydney","Location":"Footway","Accessible":"No wheelchair access"}},{"type":"Feature","id":119,"geometry":{"type":"Point","coordinates":[151.185517748124,-33.8804805642597]},"properties":{"OBJECTID":119,"site_name":"5040 Bridge Road","Suburb":"Glebe","Location":"Footway","Accessible":"No wheelchair access"}},{"type":"Feature","id":120,"geometry":{"type":"Point","coordinates":[151.192689681759,-33.8787554654457]},"properties":{"OBJECTID":120,"site_name":"5040 Wentworth Park Road","Suburb":"Glebe","Location":"Footway","Accessible":"No wheelchair access"}},{"type":"Feature","id":121,"geometry":{"type":"Point","coordinates":[151.178998209584,-33.8860273321648]},"properties":{"OBJECTID":121,"site_name":"Lyons Rd Reserve","Suburb":"Camperdown","Location":"Park","Accessible":"No wheelchair access"}},{"type":"Feature","id":122,"geometry":{"type":"Point","coordinates":[151.186844670451,-33.8841424885049]},"properties":{"OBJECTID":122,"site_name":"Seamer St Reserve","Suburb":"Forest Lodge","Location":"Park","Accessible":"No wheelchair access"}},{"type":"Feature","id":123,"geometry":{"type":"Point","coordinates":[151.210176584456,-33.8746592354908]},"properties":{"OBJECTID":123,"site_name":"Hyde Park South","Suburb":"Sydney","Location":"Park","Accessible":"No wheelchair access"}},{"type":"Feature","id":124,"geometry":{"type":"Point","coordinates":[151.214476599195,-33.8782383387702]},"properties":{"OBJECTID":124,"site_name":"Oxford Square","Suburb":"Darlinghurst","Location":"Footway","Accessible":"No wheelchair access"}},{"type":"Feature","id":125,"geometry":{"type":"Point","coordinates":[151.19348576461,-33.8631529763417]},"properties":{"OBJECTID":125,"site_name":"Pirrama Park","Suburb":"Pyrmont","Location":"Park","Accessible":"No wheelchair access"}},{"type":"Feature","id":126,"geometry":{"type":"Point","coordinates":[151.184850602065,-33.8950336811617]},"properties":{"OBJECTID":126,"site_name":"Jack Haynes Rest Area","Suburb":"Newtown","Location":"Park","Accessible":"No wheelchair access"}},{"type":"Feature","id":127,"geometry":{"type":"Point","coordinates":[151.183101899135,-33.9054401469204]},"properties":{"OBJECTID":127,"site_name":"Devine Street Reserve","Suburb":"Erskineville","Location":"Park","Accessible":"No wheelchair access"}},{"type":"Feature","id":128,"geometry":{"type":"Point","coordinates":[151.197598183433,-33.8811568431796]},"properties":{"OBJECTID":128,"site_name":"McKee Street Reserve","Suburb":"Ultimo","Location":"Park","Accessible":"No wheelchair access"}},{"type":"Feature","id":129,"geometry":{"type":"Point","coordinates":[151.175537011737,-33.881072571076]},"properties":{"OBJECTID":129,"site_name":"5010 Minogue Crescent","Suburb":"Forest Lodge","Location":"Reserve","Accessible":"No wheelchair access"}},{"type":"Feature","id":130,"geometry":{"type":"Point","coordinates":[151.184717202632,-33.8799580262091]},"properties":{"OBJECTID":130,"site_name":"St James Park","Suburb":"Glebe","Location":"Park","Accessible":"Wheelchair accessible"}},{"type":"Feature","id":131,"geometry":{"type":"Point","coordinates":[151.179156837988,-33.880333324025]},"properties":{"OBJECTID":131,"site_name":"Lewis Hoad Reserve","Suburb":"Forest Lodge","Location":"Park","Accessible":"No wheelchair access"}},{"type":"Feature","id":132,"geometry":{"type":"Point","coordinates":[151.21709369488,-33.8919805625843]},"properties":{"OBJECTID":132,"site_name":"Moore Park","Suburb":"Moore Park","Location":"Park","Accessible":"No wheelchair access"}},{"type":"Feature","id":133,"geometry":{"type":"Point","coordinates":[151.210175959106,-33.8549949001431]},"properties":{"OBJECTID":133,"site_name":"5040 Hickson Road","Suburb":"The Rocks","Location":"Footway","Accessible":"No wheelchair access"}},{"type":"Feature","id":134,"geometry":{"type":"Point","coordinates":[151.210753493695,-33.8937315088623]},"properties":{"OBJECTID":134,"site_name":"Hansom Cab Place","Suburb":"Redfern","Location":"Park","Accessible":"Wheelchair accessible"}},{"type":"Feature","id":135,"geometry":{"type":"Point","coordinates":[151.208253985457,-33.8802294819716]},"properties":{"OBJECTID":135,"site_name":"3020 Hay Street","Suburb":"Haymarket","Location":"Footway","Accessible":"No wheelchair access"}},{"type":"Feature","id":136,"geometry":{"type":"Point","coordinates":[151.206659779776,-33.8822780340662]},"properties":{"OBJECTID":136,"site_name":"5010 Eddy Avenue","Suburb":"Haymarket","Location":"Footway","Accessible":"No wheelchair access"}},{"type":"Feature","id":137,"geometry":{"type":"Point","coordinates":[151.203744263547,-33.8821557509962]},"properties":{"OBJECTID":137,"site_name":"5030 Quay Street","Suburb":"Haymarket","Location":"Footway","Accessible":"No wheelchair access"}},{"type":"Feature","id":138,"geometry":{"type":"Point","coordinates":[151.205177836981,-33.8583962647224]},"properties":{"OBJECTID":138,"site_name":"Argyle Place Park","Suburb":"Millers Point","Location":"Park","Accessible":"No wheelchair access"}},{"type":"Feature","id":139,"geometry":{"type":"Point","coordinates":[151.204324381515,-33.8602444882784]},"properties":{"OBJECTID":139,"site_name":"Observatory Hill Park","Suburb":"Millers Point","Location":"Park","Accessible":"No wheelchair access"}},{"type":"Feature","id":140,"geometry":{"type":"Point","coordinates":[151.212785447554,-33.8649203152538]},"properties":{"OBJECTID":140,"site_name":"Royal Botanic Gardens","Suburb":"Sydney","Location":"Footway","Accessible":"No wheelchair access"}},{"type":"Feature","id":141,"geometry":{"type":"Point","coordinates":[151.182277459549,-33.8737058366518]},"properties":{"OBJECTID":141,"site_name":"5030 Glebe Point Road","Suburb":"Glebe","Location":"Footway","Accessible":"No wheelchair access"}},{"type":"Feature","id":142,"geometry":{"type":"Point","coordinates":[151.223855281952,-33.8660894379178]},"properties":{"OBJECTID":142,"site_name":"5060 Cowper Wharf Roadway","Suburb":"Potts Point","Location":"Property","Accessible":"No wheelchair access"}},{"type":"Feature","id":143,"geometry":{"type":"Point","coordinates":[151.21026423799,-33.9164047456636]},"properties":{"OBJECTID":143,"site_name":"Kimberly Grove Reserve","Suburb":"Rosebery","Location":"Park","Accessible":"No wheelchair access"}},{"type":"Feature","id":144,"geometry":{"type":"Point","coordinates":[151.211082951692,-33.9063164591935]},"properties":{"OBJECTID":144,"site_name":"Joynton Park","Suburb":"Zetland","Location":"Park","Accessible":"No wheelchair access"}},{"type":"Feature","id":145,"geometry":{"type":"Point","coordinates":[151.21107836641,-33.9063236966636]},"properties":{"OBJECTID":145,"site_name":"Joynton Park","Suburb":"Zetland","Location":"Park","Accessible":"No wheelchair access"}},{"type":"Feature","id":146,"geometry":{"type":"Point","coordinates":[151.209801600601,-33.9044243865688]},"properties":{"OBJECTID":146,"site_name":"Tote Park","Suburb":"Zetland","Location":"Park","Accessible":"No wheelchair access"}},{"type":"Feature","id":147,"geometry":{"type":"Point","coordinates":[151.209788425306,-33.9044183337364]},"properties":{"OBJECTID":147,"site_name":"Tote Park","Suburb":"Zetland","Location":"Park","Accessible":"No wheelchair access"}},{"type":"Feature","id":148,"geometry":{"type":"Point","coordinates":[151.189009183484,-33.8908956955941]},"properties":{"OBJECTID":148,"site_name":"5050 City Road","Suburb":"Camperdown","Location":"Footway","Accessible":"No wheelchair access"}},{"type":"Feature","id":149,"geometry":{"type":"Point","coordinates":[151.192755596525,-33.8844063637362]},"properties":{"OBJECTID":149,"site_name":"Jubilee Fountain Plaza","Suburb":"Camperdown","Location":"Footway","Accessible":"No wheelchair access"}},{"type":"Feature","id":150,"geometry":{"type":"Point","coordinates":[151.192611686643,-33.9035817550618]},"properties":{"OBJECTID":150,"site_name":"Bowden Playground","Suburb":"Alexandria","Location":"Park","Accessible":"No wheelchair access"}},{"type":"Feature","id":151,"geometry":{"type":"Point","coordinates":[151.194376294282,-33.8990880502123]},"properties":{"OBJECTID":151,"site_name":"5040 Renwick Street","Suburb":"Alexandria","Location":"Park","Accessible":"No wheelchair access"}},{"type":"Feature","id":152,"geometry":{"type":"Point","coordinates":[151.180491962744,-33.9023435641982]},"properties":{"OBJECTID":152,"site_name":"Gowrie Street Reserve","Suburb":"Newtown","Location":"Park","Accessible":"No wheelchair access"}},{"type":"Feature","id":153,"geometry":{"type":"Point","coordinates":[151.180980673174,-33.9028517868851]},"properties":{"OBJECTID":153,"site_name":"Union Street Reserve","Suburb":"Newtown","Location":"Park","Accessible":"No wheelchair access"}},{"type":"Feature","id":154,"geometry":{"type":"Point","coordinates":[151.183445959376,-33.8993720460081]},"properties":{"OBJECTID":154,"site_name":"4090 Erskineville Road","Suburb":"Erskineville","Location":"Footway","Accessible":"No wheelchair access"}},{"type":"Feature","id":155,"geometry":{"type":"Point","coordinates":[151.183696570393,-33.901087594331]},"properties":{"OBJECTID":155,"site_name":"5010 Morrissey Road","Suburb":"Erskineville","Location":"Property","Accessible":"No wheelchair access"}},{"type":"Feature","id":156,"geometry":{"type":"Point","coordinates":[151.21487144123,-33.8931104481434]},"properties":{"OBJECTID":156,"site_name":"Chelsea St Playground","Suburb":"Redfern","Location":"Park","Accessible":"No wheelchair access"}},{"type":"Feature","id":157,"geometry":{"type":"Point","coordinates":[151.210931704647,-33.9075456757797]},"properties":{"OBJECTID":157,"site_name":"Nuffield Park","Suburb":"Zetland","Location":"Park","Accessible":"No wheelchair access"}},{"type":"Feature","id":158,"geometry":{"type":"Point","coordinates":[151.195109881193,-33.8713986675622]},"properties":{"OBJECTID":158,"site_name":"Elizabeth Healy Reserve","Suburb":"Pyrmont","Location":"Reserve","Accessible":"No wheelchair access"}},{"type":"Feature","id":159,"geometry":{"type":"Point","coordinates":[151.206045478425,-33.866920453852]},"properties":{"OBJECTID":159,"site_name":"Wynyard Park","Suburb":"Sydney","Location":"Park","Accessible":"No wheelchair access"}},{"type":"Feature","id":160,"geometry":{"type":"Point","coordinates":[151.214471462478,-33.8721794517883]},"properties":{"OBJECTID":160,"site_name":"Cook and Phillip Park","Suburb":"Woolloomooloo","Location":"Park","Accessible":"No wheelchair access"}},{"type":"Feature","id":161,"geometry":{"type":"Point","coordinates":[151.196774639533,-33.888797485331]},"properties":{"OBJECTID":161,"site_name":"Vine Street Playground 1","Suburb":"Darlington","Location":"Park","Accessible":"No wheelchair access"}},{"type":"Feature","id":162,"geometry":{"type":"Point","coordinates":[151.204838537276,-33.9024882457981]},"properties":{"OBJECTID":162,"site_name":"4060 George Street","Suburb":"Waterloo","Location":"Footway","Accessible":"No wheelchair access"}},{"type":"Feature","id":163,"geometry":{"type":"Point","coordinates":[151.211125626892,-33.8887686852142]},"properties":{"OBJECTID":163,"site_name":"Eddie Ward Park","Suburb":"Surry Hills","Location":"Park","Accessible":"No wheelchair access"}},{"type":"Feature","id":164,"geometry":{"type":"Point","coordinates":[151.222675457637,-33.8930123019982]},"properties":{"OBJECTID":164,"site_name":"Moore Park","Suburb":"Moore Park","Location":"Park","Accessible":"Wheelchair accessible"}},{"type":"Feature","id":165,"geometry":{"type":"Point","coordinates":[151.222452973899,-33.8904097283718]},"properties":{"OBJECTID":165,"site_name":"Moore Park","Suburb":"Moore Park","Location":"Park","Accessible":"No wheelchair access"}},{"type":"Feature","id":166,"geometry":{"type":"Point","coordinates":[151.185949671749,-33.8944716816916]},"properties":{"OBJECTID":166,"site_name":"Hollis Park","Suburb":"Newtown","Location":"Park","Accessible":"No wheelchair access"}},{"type":"Feature","id":167,"geometry":{"type":"Point","coordinates":[151.198435100763,-33.8953121320677]},"properties":{"OBJECTID":167,"site_name":"Daniel Dawson Playground","Suburb":"Alexandria","Location":"Park","Accessible":"No wheelchair access"}},{"type":"Feature","id":168,"geometry":{"type":"Point","coordinates":[151.181572354623,-33.8838369912567]},"properties":{"OBJECTID":168,"site_name":"May Pitt Playground","Suburb":"Forest Lodge","Location":"Park","Accessible":"No wheelchair access"}},{"type":"Feature","id":169,"geometry":{"type":"Point","coordinates":[151.182208317976,-33.892687803128]},"properties":{"OBJECTID":169,"site_name":"5010 O'Connell Street","Suburb":"Newtown","Location":"Park","Accessible":"No wheelchair access"}},{"type":"Feature","id":170,"geometry":{"type":"Point","coordinates":[151.186584095688,-33.8731833538675]},"properties":{"OBJECTID":170,"site_name":"Glebe Foreshore Walk East","Suburb":"Glebe","Location":"Park","Accessible":"Wheelchair accessible"}},{"type":"Feature","id":171,"geometry":{"type":"Point","coordinates":[151.212419565609,-33.8792068262488]},"properties":{"OBJECTID":171,"site_name":"Harmony Park (Surry Hills Park)","Suburb":"Surry Hills","Location":"Park","Accessible":"Wheelchair accessible"}},{"type":"Feature","id":172,"geometry":{"type":"Point","coordinates":[151.211912118918,-33.8800133742277]},"properties":{"OBJECTID":172,"site_name":"Harmony Park (Surry Hills Park)","Suburb":"Surry Hills","Location":"Park","Accessible":"Wheelchair accessible"}},{"type":"Feature","id":173,"geometry":{"type":"Point","coordinates":[151.1794382111,-33.871820672028]},"properties":{"OBJECTID":173,"site_name":"Bicentennial Park 1","Suburb":"Glebe","Location":"Park","Accessible":"Wheelchair accessible"}},{"type":"Feature","id":174,"geometry":{"type":"Point","coordinates":[151.190195148071,-33.8767718097949]},"properties":{"OBJECTID":174,"site_name":"Thomas Portley Reserve","Suburb":"Glebe","Location":"Reserve","Accessible":"No wheelchair access"}},{"type":"Feature","id":175,"geometry":{"type":"Point","coordinates":[151.18122125434,-33.8943759763963]},"properties":{"OBJECTID":175,"site_name":"Ernest Wright Playground","Suburb":"Newtown","Location":"Park","Accessible":"No wheelchair access"}},{"type":"Feature","id":176,"geometry":{"type":"Point","coordinates":[151.194500167905,-33.8792207096083]},"properties":{"OBJECTID":176,"site_name":"Wentworth Park","Suburb":"Glebe","Location":"Park","Accessible":"No wheelchair access"}},{"type":"Feature","id":177,"geometry":{"type":"Point","coordinates":[151.194618920504,-33.8778688495828]},"properties":{"OBJECTID":177,"site_name":"Wentworth Park","Suburb":"Glebe","Location":"Park","Accessible":"Wheelchair accessible"}},{"type":"Feature","id":178,"geometry":{"type":"Point","coordinates":[151.193472515478,-33.8756425124503]},"properties":{"OBJECTID":178,"site_name":"Wentworth Park","Suburb":"Glebe","Location":"Park","Accessible":"No wheelchair access"}},{"type":"Feature","id":179,"geometry":{"type":"Point","coordinates":[151.191927722498,-33.8754031622068]},"properties":{"OBJECTID":179,"site_name":"Wentworth Park","Suburb":"Glebe","Location":"Park","Accessible":"No wheelchair access"}},{"type":"Feature","id":180,"geometry":{"type":"Point","coordinates":[151.191945899985,-33.8756176821515]},"properties":{"OBJECTID":180,"site_name":"Wentworth Park","Suburb":"Glebe","Location":"Park","Accessible":"No wheelchair access"}},{"type":"Feature","id":181,"geometry":{"type":"Point","coordinates":[151.18487162666,-33.9141603947315]},"properties":{"OBJECTID":181,"site_name":"Sydney Park","Suburb":"Alexandria","Location":"Park","Accessible":"Wheelchair accessible"}},{"type":"Feature","id":182,"geometry":{"type":"Point","coordinates":[151.221273590046,-33.8949052005076]},"properties":{"OBJECTID":182,"site_name":"4220 Cleveland Street","Suburb":"Moore Park","Location":"Park","Accessible":"No wheelchair access"}},{"type":"Feature","id":183,"geometry":{"type":"Point","coordinates":[151.218191719328,-33.8903082110596]},"properties":{"OBJECTID":183,"site_name":"Moore Park","Suburb":"Moore Park","Location":"Park","Accessible":"No wheelchair access"}},{"type":"Feature","id":184,"geometry":{"type":"Point","coordinates":[151.176798218728,-33.8744332782113]},"properties":{"OBJECTID":184,"site_name":"Federal Park 1","Suburb":"Annandale","Location":"Park","Accessible":"Wheelchair accessible"}},{"type":"Feature","id":185,"geometry":{"type":"Point","coordinates":[151.18478937906,-33.8713229690253]},"properties":{"OBJECTID":185,"site_name":"Blackwattle Bay Park","Suburb":"Glebe","Location":"Park","Accessible":"Wheelchair accessible"}},{"type":"Feature","id":186,"geometry":{"type":"Point","coordinates":[151.22662345044,-33.8697417066088]},"properties":{"OBJECTID":186,"site_name":"Arthur McElhone Reserve","Suburb":"Elizabeth Bay","Location":"Park","Accessible":"No wheelchair access"}},{"type":"Feature","id":187,"geometry":{"type":"Point","coordinates":[151.212517928947,-33.8830018823366]},"properties":{"OBJECTID":187,"site_name":"Frog Hollow Reserve","Suburb":"Surry Hills","Location":"Park","Accessible":"Wheelchair accessible"}},{"type":"Feature","id":188,"geometry":{"type":"Point","coordinates":[151.197476196574,-33.9007723666881]},"properties":{"OBJECTID":188,"site_name":"Alexandria Park","Suburb":"Alexandria","Location":"Park","Accessible":"No wheelchair access"}},{"type":"Feature","id":189,"geometry":{"type":"Point","coordinates":[151.215009473897,-33.8961326488806]},"properties":{"OBJECTID":189,"site_name":"Edmund Resch Reserve","Suburb":"Redfern","Location":"Reserve","Accessible":"Wheelchair accessible"}},{"type":"Feature","id":190,"geometry":{"type":"Point","coordinates":[151.210908886829,-33.9196479232507]},"properties":{"OBJECTID":190,"site_name":"Bannerman Cres.Reserve","Suburb":"Rosebery","Location":"Park","Accessible":"Wheelchair accessible"}},{"type":"Feature","id":191,"geometry":{"type":"Point","coordinates":[151.207400102264,-33.8805083218671]},"properties":{"OBJECTID":191,"site_name":"Belmore Park (west of Railway)","Suburb":"Haymarket","Location":"Park","Accessible":"No wheelchair access"}},{"type":"Feature","id":192,"geometry":{"type":"Point","coordinates":[151.206878232571,-33.8935061650073]},"properties":{"OBJECTID":192,"site_name":"Redfern Park","Suburb":"Redfern","Location":"Park","Accessible":"Wheelchair accessible"}},{"type":"Feature","id":193,"geometry":{"type":"Point","coordinates":[151.205538925212,-33.8937484340102]},"properties":{"OBJECTID":193,"site_name":"Redfern Park","Suburb":"Redfern","Location":"Park","Accessible":"Wheelchair accessible"}},{"type":"Feature","id":194,"geometry":{"type":"Point","coordinates":[151.205134346443,-33.9022800178771]},"properties":{"OBJECTID":194,"site_name":"Waterloo Park and Oval","Suburb":"Waterloo","Location":"Park","Accessible":"No wheelchair access"}},{"type":"Feature","id":195,"geometry":{"type":"Point","coordinates":[151.187069270596,-33.909186710214]},"properties":{"OBJECTID":195,"site_name":"Sydney Park","Suburb":"Alexandria","Location":"Park","Accessible":"Wheelchair accessible"}},{"type":"Feature","id":196,"geometry":{"type":"Point","coordinates":[151.196599537981,-33.887063584497]},"properties":{"OBJECTID":196,"site_name":"Peace Park","Suburb":"Chippendale","Location":"Park","Accessible":"No wheelchair access"}},{"type":"Feature","id":197,"geometry":{"type":"Point","coordinates":[151.198315200714,-33.8841034850917]},"properties":{"OBJECTID":197,"site_name":"Wattle & Broadway Rest Area","Suburb":"Ultimo","Location":"Footway","Accessible":"No wheelchair access"}},{"type":"Feature","id":198,"geometry":{"type":"Point","coordinates":[151.22044680279,-33.881204624064]},"properties":{"OBJECTID":198,"site_name":"4020 Barcom Avenue","Suburb":"Darlinghurst","Location":"Reserve","Accessible":"Wheelchair accessible"}},{"type":"Feature","id":199,"geometry":{"type":"Point","coordinates":[151.178551391033,-33.8737155489517]},"properties":{"OBJECTID":199,"site_name":"Jubilee Park","Suburb":"Glebe","Location":"Park","Accessible":"Wheelchair accessible"}},{"type":"Feature","id":200,"geometry":{"type":"Point","coordinates":[151.192406876545,-33.8793185096505]},"properties":{"OBJECTID":200,"site_name":"M J (Paddy) Doherty Reserve","Suburb":"Glebe","Location":"Park","Accessible":"Wheelchair accessible"}},{"type":"Feature","id":201,"geometry":{"type":"Point","coordinates":[151.211948783455,-33.8759034040383]},"properties":{"OBJECTID":201,"site_name":"Hyde Park South","Suburb":"Sydney","Location":"Park","Accessible":"No wheelchair access"}},{"type":"Feature","id":202,"geometry":{"type":"Point","coordinates":[151.211754967777,-33.8764463254646]},"properties":{"OBJECTID":202,"site_name":"Hyde Park South","Suburb":"Sydney","Location":"Park","Accessible":"No wheelchair access"}},{"type":"Feature","id":203,"geometry":{"type":"Point","coordinates":[151.210013171183,-33.8763550224496]},"properties":{"OBJECTID":203,"site_name":"Hyde Park South","Suburb":"Sydney","Location":"Park","Accessible":"No wheelchair access"}},{"type":"Feature","id":204,"geometry":{"type":"Point","coordinates":[151.209840065828,-33.8755641139289]},"properties":{"OBJECTID":204,"site_name":"Hyde Park South","Suburb":"Sydney","Location":"Park","Accessible":"No wheelchair access"}},{"type":"Feature","id":205,"geometry":{"type":"Point","coordinates":[151.204349071191,-33.9188476292485]},"properties":{"OBJECTID":205,"site_name":"Turruwul Park","Suburb":"Rosebery","Location":"Park","Accessible":"Wheelchair accessible"}},{"type":"Feature","id":206,"geometry":{"type":"Point","coordinates":[151.18535578063,-33.8976985382216]},"properties":{"OBJECTID":206,"site_name":"Burren Street Reserve 2","Suburb":"Erskineville","Location":"Reserve","Accessible":"Wheelchair accessible"}},{"type":"Feature","id":207,"geometry":{"type":"Point","coordinates":[151.223348654798,-33.8679298111906]},"properties":{"OBJECTID":207,"site_name":"Embarkation Park","Suburb":"Potts Point","Location":"Park","Accessible":"Wheelchair accessible"}},{"type":"Feature","id":208,"geometry":{"type":"Point","coordinates":[151.195999626414,-33.8755464470594]},"properties":{"OBJECTID":208,"site_name":"Fig Lane Park","Suburb":"Ultimo","Location":"Park","Accessible":"Wheelchair accessible"}},{"type":"Feature","id":209,"geometry":{"type":"Point","coordinates":[151.191737327391,-33.8638109391923]},"properties":{"OBJECTID":209,"site_name":"Pirrama Park","Suburb":"Pyrmont","Location":"Park","Accessible":"Wheelchair accessible"}},{"type":"Feature","id":210,"geometry":{"type":"Point","coordinates":[151.179570009011,-33.8726087538606]},"properties":{"OBJECTID":210,"site_name":"Bicentennial Park 1","Suburb":"Glebe","Location":"Park","Accessible":"Wheelchair accessible"}},{"type":"Feature","id":211,"geometry":{"type":"Point","coordinates":[151.177703634512,-33.8726930673183]},"properties":{"OBJECTID":211,"site_name":"Bicentennial Park 1","Suburb":"Glebe","Location":"Park","Accessible":"Wheelchair accessible"}},{"type":"Feature","id":212,"geometry":{"type":"Point","coordinates":[151.18244200111,-33.908913803099]},"properties":{"OBJECTID":212,"site_name":"Sydney Park","Suburb":"Alexandria","Location":"Park","Accessible":"Wheelchair accessible"}},{"type":"Feature","id":213,"geometry":{"type":"Point","coordinates":[151.182757396233,-33.9092079142786]},"properties":{"OBJECTID":213,"site_name":"Sydney Park","Suburb":"Alexandria","Location":"Park","Accessible":"Wheelchair accessible"}},{"type":"Feature","id":214,"geometry":{"type":"Point","coordinates":[151.212371008816,-33.8693480876336]},"properties":{"OBJECTID":214,"site_name":"Barracks Square","Suburb":"Sydney","Location":"Footway","Accessible":"No wheelchair access"}},{"type":"Feature","id":215,"geometry":{"type":"Point","coordinates":[151.186322645945,-33.8802717622995]},"properties":{"OBJECTID":215,"site_name":"Dr H J Foley Rest Park","Suburb":"Glebe","Location":"Park","Accessible":"Wheelchair accessible"}},{"type":"Feature","id":216,"geometry":{"type":"Point","coordinates":[151.206579265672,-33.8953490247739]},"properties":{"OBJECTID":216,"site_name":"Redfern Park","Suburb":"Redfern","Location":"Park","Accessible":"Wheelchair accessible"}},{"type":"Feature","id":217,"geometry":{"type":"Point","coordinates":[151.192214253025,-33.878230350573]},"properties":{"OBJECTID":217,"site_name":"Millard Reserve","Suburb":"Glebe","Location":"Park","Accessible":"Wheelchair accessibility unknown"}},{"type":"Feature","id":218,"geometry":{"type":"Point","coordinates":[151.198729780822,-33.8807116142005]},"properties":{"OBJECTID":218,"site_name":"Mary Ann Street Park","Suburb":"Ultimo","Location":"Park","Accessible":"Wheelchair accessible"}},{"type":"Feature","id":219,"geometry":{"type":"Point","coordinates":[151.225530655936,-33.8870093553482]},"properties":{"OBJECTID":219,"site_name":"Ethel Turner Park","Suburb":"Paddington","Location":"Park","Accessible":"Wheelchair accessible"}},{"type":"Feature","id":220,"geometry":{"type":"Point","coordinates":[151.191850794001,-33.8999505684343]},"properties":{"OBJECTID":220,"site_name":"Dibbs St Reserve","Suburb":"Alexandria","Location":"Reserve","Accessible":"Wheelchair accessible"}},{"type":"Feature","id":221,"geometry":{"type":"Point","coordinates":[151.212493950991,-33.8957795643331]},"properties":{"OBJECTID":221,"site_name":"Elizabeth McCrea Playground","Suburb":"Redfern","Location":"Park","Accessible":"Wheelchair accessible"}},{"type":"Feature","id":222,"geometry":{"type":"Point","coordinates":[151.202918058107,-33.8890776277]},"properties":{"OBJECTID":222,"site_name":"Prince Alfred Park","Suburb":"Surry Hills","Location":"Park","Accessible":"Wheelchair accessible"}},{"type":"Feature","id":223,"geometry":{"type":"Point","coordinates":[151.20495482157,-33.8874159340214]},"properties":{"OBJECTID":223,"site_name":"Prince Alfred Park","Suburb":"Surry Hills","Location":"Park","Accessible":"Wheelchair accessible"}},{"type":"Feature","id":224,"geometry":{"type":"Point","coordinates":[151.20670020557,-33.8861478109254]},"properties":{"OBJECTID":224,"site_name":"Prince Alfred Park","Suburb":"Surry Hills","Location":"Park","Accessible":"Wheelchair accessible"}},{"type":"Feature","id":225,"geometry":{"type":"Point","coordinates":[151.190203883412,-33.9015600510272]},"properties":{"OBJECTID":225,"site_name":"Erskineville Park and Oval","Suburb":"Erskineville","Location":"Park","Accessible":"Wheelchair accessible"}},{"type":"Feature","id":226,"geometry":{"type":"Point","coordinates":[151.208243975835,-33.8700961004475]},"properties":{"OBJECTID":226,"site_name":"Pitt Street Mall","Suburb":"Sydney","Location":"Footway","Accessible":"Wheelchair accessible"}},{"type":"Feature","id":227,"geometry":{"type":"Point","coordinates":[151.208305197555,-33.8697943659041]},"properties":{"OBJECTID":227,"site_name":"Pitt Street Mall","Suburb":"Sydney","Location":"Footway","Accessible":"Wheelchair accessible"}},{"type":"Feature","id":228,"geometry":{"type":"Point","coordinates":[151.208268013051,-33.8693390762699]},"properties":{"OBJECTID":228,"site_name":"Pitt Street Mall","Suburb":"Sydney","Location":"Footway","Accessible":"Wheelchair accessible"}},{"type":"Feature","id":229,"geometry":{"type":"Point","coordinates":[151.208331251338,-33.869080474303]},"properties":{"OBJECTID":229,"site_name":"Pitt Street Mall","Suburb":"Sydney","Location":"Footway","Accessible":"Wheelchair accessible"}},{"type":"Feature","id":230,"geometry":{"type":"Point","coordinates":[151.211875865974,-33.8889779618104]},"properties":{"OBJECTID":230,"site_name":"Eddie Ward Park","Suburb":"Surry Hills","Location":"Park","Accessible":"Wheelchair accessible"}},{"type":"Feature","id":231,"geometry":{"type":"Point","coordinates":[151.193044072944,-33.8869177875214]},"properties":{"OBJECTID":231,"site_name":"Victoria Park","Suburb":"Camperdown","Location":"Park","Accessible":"Wheelchair accessible"}},{"type":"Feature","id":232,"geometry":{"type":"Point","coordinates":[151.194352287695,-33.8787580240814]},"properties":{"OBJECTID":232,"site_name":"Wentworth Park","Suburb":"Glebe","Location":"Park","Accessible":"Wheelchair accessible"}},{"type":"Feature","id":233,"geometry":{"type":"Point","coordinates":[151.184680262441,-33.9039366992423]},"properties":{"OBJECTID":233,"site_name":"5040 MacDonald Street","Suburb":"Erskineville","Location":"Footway","Accessible":"Wheelchair accessible"}},{"type":"Feature","id":234,"geometry":{"type":"Point","coordinates":[151.183306997589,-33.9042398997907]},"properties":{"OBJECTID":234,"site_name":"Flora & Knight Reserve","Suburb":"Erskineville","Location":"Reserve","Accessible":"No wheelchair access"}},{"type":"Feature","id":235,"geometry":{"type":"Point","coordinates":[151.206108211393,-33.9090961046408]},"properties":{"OBJECTID":235,"site_name":"Matron Ruby Grant Park - 3 Joynton Ave","Suburb":"Zetland","Location":"Park","Accessible":"Wheelchair accessibility unknown"}},{"type":"Feature","id":236,"geometry":{"type":"Point","coordinates":[151.206042574187,-33.9088478920835]},"properties":{"OBJECTID":236,"site_name":"Matron Ruby Grant Park - 3 Joynton Ave","Suburb":"Zetland","Location":"Park","Accessible":"Wheelchair accessibility unknown"}},{"type":"Feature","id":237,"geometry":{"type":"Point","coordinates":[151.189229944669,-33.8758609378826]},"properties":{"OBJECTID":237,"site_name":"Glebe Foreshore Walk Stage 5","Suburb":"Glebe","Location":"Park","Accessible":"Wheelchair accessibility unknown"}},{"type":"Feature","id":238,"geometry":{"type":"Point","coordinates":[151.210748192633,-33.9016558286055]},"properties":{"OBJECTID":238,"site_name":"The Rope Walk","Suburb":"Waterloo","Location":"Park","Accessible":"Wheelchair accessibility unknown"}},{"type":"Feature","id":239,"geometry":{"type":"Point","coordinates":[151.184012688438,-33.9119511091813]},"properties":{"OBJECTID":239,"site_name":"Sydney Park","Suburb":"Alexandria","Location":"Park","Accessible":"Wheelchair accessibility unknown"}},{"type":"Feature","id":240,"geometry":{"type":"Point","coordinates":[151.186104191661,-33.9110774993096]},"properties":{"OBJECTID":240,"site_name":"Sydney Park","Suburb":"Alexandria","Location":"Park","Accessible":"Wheelchair accessibility unknown"}},{"type":"Feature","id":241,"geometry":{"type":"Point","coordinates":[151.184182004412,-33.9140081135114]},"properties":{"OBJECTID":241,"site_name":"Sydney Park","Suburb":"Alexandria","Location":"Park","Accessible":"Wheelchair accessibility unknown"}},{"type":"Feature","id":242,"geometry":{"type":"Point","coordinates":[151.182262995988,-33.9126578589889]},"properties":{"OBJECTID":242,"site_name":"Sydney Park","Suburb":"Alexandria","Location":"Park","Accessible":"Wheelchair accessibility unknown"}},{"type":"Feature","id":243,"geometry":{"type":"Point","coordinates":[151.203824335473,-33.9200345039567]},"properties":{"OBJECTID":243,"site_name":"Turruwul Park","Suburb":"Rosebery","Location":"Park","Accessible":"Wheelchair accessibility unknown"}},{"type":"Feature","id":244,"geometry":{"type":"Point","coordinates":[151.204335245327,-33.8991928111264]},"properties":{"OBJECTID":244,"site_name":"Waterloo Park & Mount Carmel","Suburb":"Waterloo","Location":"Park","Accessible":"Wheelchair accessibility unknown"}},{"type":"Feature","id":245,"geometry":{"type":"Point","coordinates":[151.205863840642,-33.8594153058763]},"properties":{"OBJECTID":245,"site_name":"Observatory Hill Park","Suburb":"Millers Point","Location":"Park","Accessible":"Wheelchair accessibility unknown"}},{"type":"Feature","id":246,"geometry":{"type":"Point","coordinates":[151.176411793156,-33.8736837167085]},"properties":{"OBJECTID":246,"site_name":"Bicentennial Park 2","Suburb":"Annandale","Location":"Park","Accessible":"Wheelchair accessibility unknown"}},{"type":"Feature","id":247,"geometry":{"type":"Point","coordinates":[151.183315648304,-33.8987197931276]},"properties":{"OBJECTID":247,"site_name":"Pinkstone Playground","Suburb":"Erskineville","Location":"Park","Accessible":"Wheelchair accessibility unknown"}},{"type":"Feature","id":248,"geometry":{"type":"Point","coordinates":[151.175802823032,-33.8733185154215]},"properties":{"OBJECTID":248,"site_name":"Bicentennial Park 2","Suburb":"Annandale","Location":"Park","Accessible":"Wheelchair accessibility unknown"}},{"type":"Feature","id":249,"geometry":{"type":"Point","coordinates":[151.179367169139,-33.877984975711]},"properties":{"OBJECTID":249,"site_name":"Harold Park","Suburb":"Forest Lodge","Location":"Park","Accessible":"Wheelchair accessibility unknown"}},{"type":"Feature","id":250,"geometry":{"type":"Point","coordinates":[151.184098840093,-33.880481297924]},"properties":{"OBJECTID":250,"site_name":"John St Reserve","Suburb":"Glebe","Location":"Park","Accessible":"Wheelchair accessibility unknown"}},{"type":"Feature","id":251,"geometry":{"type":"Point","coordinates":[151.184342838359,-33.880288135498]},"properties":{"OBJECTID":251,"site_name":"St James Park","Suburb":"Glebe","Location":"Park","Accessible":"Wheelchair accessibility unknown"}},{"type":"Feature","id":252,"geometry":{"type":"Point","coordinates":[151.228478017342,-33.8739227312144]},"properties":{"OBJECTID":252,"site_name":"Rushcutters Bay Park","Suburb":"Rushcutters Bay","Location":"Park","Accessible":"Wheelchair accessibility unknown"}},{"type":"Feature","id":253,"geometry":{"type":"Point","coordinates":[151.221193378413,-33.8713628583067]},"properties":{"OBJECTID":253,"site_name":"Woolloomooloo Playground","Suburb":"Woolloomooloo","Location":"Park","Accessible":"Wheelchair accessibility unknown"}},{"type":"Feature","id":254,"geometry":{"type":"Point","coordinates":[151.192006569414,-33.8648884121131]},"properties":{"OBJECTID":254,"site_name":"Pirrama Park","Suburb":"Pyrmont","Location":"Park","Accessible":"Wheelchair accessibility unknown"}},{"type":"Feature","id":255,"geometry":{"type":"Point","coordinates":[151.225661273724,-33.8725185768029]},"properties":{"OBJECTID":255,"site_name":"Fitzroy Gardens","Suburb":"Elizabeth Bay","Location":"Park","Accessible":"Wheelchair accessibility unknown"}},{"type":"Feature","id":256,"geometry":{"type":"Point","coordinates":[151.213604084459,-33.9023515005272]},"properties":{"OBJECTID":256,"site_name":"Wulaba Park","Suburb":"Waterloo","Location":"Park","Accessible":"Wheelchair accessible"}},{"type":"Feature","id":257,"geometry":{"type":"Point","coordinates":[151.213468777261,-33.9029070831624]},"properties":{"OBJECTID":257,"site_name":"Wulaba Park","Suburb":"Waterloo","Location":"Park","Accessible":"Wheelchair accessible"}},{"type":"Feature","id":258,"geometry":{"type":"Point","coordinates":[151.205389961755,-33.9020648913267]},"properties":{"OBJECTID":258,"site_name":"Waterloo Park and Oval","Suburb":"Waterloo","Location":"Park","Accessible":"Wheelchair accessible"}},{"type":"Feature","id":259,"geometry":{"type":"Point","coordinates":[151.20546152186,-33.9130812855407]},"properties":{"OBJECTID":259,"site_name":"Sweet Acres","Suburb":"Rosebery","Location":"Park","Accessible":"Wheelchair accessible"}},{"type":"Feature","id":260,"geometry":{"type":"Point","coordinates":[151.210796495066,-33.8786873054937]},"properties":{"OBJECTID":260,"site_name":"4020 Wentworth Avenue","Suburb":"Sydney","Location":"Footway","Accessible":"Wheelchair accessible"}},{"type":"Feature","id":261,"geometry":{"type":"Point","coordinates":[151.199990209256,-33.8855587625043]},"properties":{"OBJECTID":261,"site_name":"Chippendale Green","Suburb":"Chippendale","Location":"Park","Accessible":"Wheelchair accessibility unknown"}},{"type":"Feature","id":262,"geometry":{"type":"Point","coordinates":[151.216195882308,-33.8780057981038]},"properties":{"OBJECTID":262,"site_name":"Albert Sloss Reserve","Suburb":"Darlinghurst","Location":"Park","Accessible":"Wheelchair accessibility unknown"}},{"type":"Feature","id":263,"geometry":{"type":"Point","coordinates":[151.190992345488,-33.8998654620563]},"properties":{"OBJECTID":263,"site_name":"Renwick St Playground","Suburb":"Alexandria","Location":"Park","Accessible":"Wheelchair accessibility unknown"}},{"type":"Feature","id":264,"geometry":{"type":"Point","coordinates":[151.208628920995,-33.8536361255723]},"properties":{"OBJECTID":264,"site_name":"5030 Hickson Road","Suburb":"Dawes Point","Location":"Unknown","Accessible":"Wheelchair accessibility unknown"}},{"type":"Feature","id":265,"geometry":{"type":"Point","coordinates":[151.181733956963,-33.8980459402094]},"properties":{"OBJECTID":265,"site_name":"Green Ban Parks","Suburb":"Erskineville","Location":"Park","Accessible":"Wheelchair accessibility unknown"}},{"type":"Feature","id":266,"geometry":{"type":"Point","coordinates":[151.182147591922,-33.9022835224277]},"properties":{"OBJECTID":266,"site_name":"Rochford Street Playground","Suburb":"Erskineville","Location":"Reserve","Accessible":"Wheelchair accessibility unknown"}},{"type":"Feature","id":267,"geometry":{"type":"Point","coordinates":[151.203954978136,-33.8586680873811]},"properties":{"OBJECTID":267,"site_name":"Nita McCrae Park, 17 Argyle Street","Suburb":"Millers Point","Location":"Park","Accessible":"Wheelchair accessibility unknown"}},{"type":"Feature","id":268,"geometry":{"type":"Point","coordinates":[151.206667446694,-33.9042075448604]},"properties":{"OBJECTID":268,"site_name":"906 Bourke Street","Suburb":"Zetland","Location":"Park","Accessible":"Wheelchair accessibility unknown"}},{"type":"Feature","id":269,"geometry":{"type":"Point","coordinates":[151.226221520368,-33.8767270646438]},"properties":{"OBJECTID":269,"site_name":"Womerah Gardens","Suburb":"Darlinghurst","Location":"Park","Accessible":"Wheelchair accessibility unknown"}},{"type":"Feature","id":270,"geometry":{"type":"Point","coordinates":[151.206722391102,-33.9142485579629]},"properties":{"OBJECTID":270,"site_name":"9A Rosebery Avenue","Suburb":"Rosebery","Location":"Park","Accessible":"Wheelchair accessibility unknown"}},{"type":"Feature","id":271,"geometry":{"type":"Point","coordinates":[151.184801544857,-33.8942718036066]},"properties":{"OBJECTID":271,"site_name":"Michael Kelly Rest Area","Suburb":"Newtown","Location":"Park","Accessible":"Wheelchair accessibility unknown"}},{"type":"Feature","id":272,"geometry":{"type":"Point","coordinates":[151.184322871424,-33.9131697762112]},"properties":{"OBJECTID":272,"site_name":"Sydney Park","Suburb":"Alexandria","Location":"Park","Accessible":"Wheelchair accessibility unknown"}},{"type":"Feature","id":273,"geometry":{"type":"Point","coordinates":[151.226306155902,-33.8730759436374]},"properties":{"OBJECTID":273,"site_name":"Lawrence Hargrave Reserve","Suburb":"Elizabeth Bay","Location":"Park","Accessible":"Wheelchair accessibility unknown"}}]}